,Country,City,Latitude,Longitude,Max Temp,Humidity,Cloudiness,Wind Speed,Date
0,CA,Thompson,55.7435,-97.8558,54.36,71,65,11.32,1601413200
1,NZ,Mataura,-46.1927,168.8643,41.81,91,99,6.6,1601413200
2,CL,Punta Arenas,-53.15,-70.9167,38.16,69,46,23.71,1601413200
3,FR,Saint-François,46.4154,3.9054,52.18,93,89,1.54,1601413200
4,US,Pacific Grove,36.6177,-121.9166,68.04,77,1,7.34,1601413200
5,PT,Lagoa,39.05,-27.9833,66.87,66,73,9.91,1601413200
6,RU,Svetlaya,46.5389,138.3297,51.21,68,16,8.1,1601413200
7,CN,Jimo,36.3897,120.4622,58.62,72,0,7.52,1601413200
8,ES,Muros,42.7762,-9.0603,61.2,73,0,5.66,1601413200
9,PH,Santa Rosa,14.3122,121.1114,79.77,88,69,4.88,1601413200
10,PH,Sulangan,11.1373,123.7228,83.64,73,99,7.07,1601413200
11,PF,Atuona,-9.8,-139.0333,78.1,75,9,18.63,1601413200
12,LY,Awjilah,29.1081,21.2869,88.9,21,0,9.55,1601413200
13,US,Albany,42.6001,-73.9662,65.59,82,79,1.9,1601413200
14,CA,Chapais,49.7834,-74.8492,54.79,69,95,11.59,1601413200
15,AU,Carnarvon,-24.8667,113.6333,64.15,77,0,20.89,1601413200
16,PF,Rikitea,-23.1203,-134.9692,70.38,79,69,20.8,1601413200
17,GL,Paamiut,61.994,-49.6678,35.62,76,0,16.35,1601413200
18,US,Jamestown,42.097,-79.2353,57.85,76,87,8.05,1601413200
19,US,Clarksburg,39.2807,-80.3445,55.71,89,95,3.65,1601413200
20,LK,Matara,5.9485,80.5353,77.76,87,100,8.75,1601413200
21,BR,Tarauacá,-8.1614,-70.7656,87.93,54,73,3.96,1601413200
22,CA,Bonavista,48.6499,-53.1147,65.17,80,58,18.54,1601413200
23,PG,Kavieng,-2.5744,150.7967,81.7,77,28,4.63,1601413200
24,RU,Kochevo,59.5994,54.3125,46.83,92,60,2.64,1601413200
25,PH,Gupitan,7.7758,125.6406,73.51,89,76,1.95,1601413200
26,RU,Dikson,73.5069,80.5464,35.33,82,96,15.82,1601413200
27,US,Saint George,37.1041,-113.5841,86.99,12,1,1.32,1601413200
28,GL,Upernavik,72.7868,-56.1549,24.1,89,82,6.24,1601413200
29,RU,Aldan,58.6031,125.3894,37.98,94,100,4.14,1601413200
30,CA,Norman Wells,65.282,-126.8329,46.22,69,31,9.82,1601413200
31,IN,Kavaratti,10.5669,72.642,80.85,81,69,13.62,1601413200
32,AR,San Juan,-31.5375,-68.5364,88.97,8,0,35.05,1601413200
33,PH,Palimbang,6.2106,124.1894,79.02,70,100,6.85,1601413200
34,RU,Nikolskoye,59.7035,30.7861,50.85,91,19,2.98,1601413200
35,TL,Airai,-8.9266,125.4092,58.78,81,90,3.09,1601413200
36,AR,Ushuaia,-54.8,-68.3,38.03,71,69,0.78,1601413200
37,CL,Antofagasta,-23.65,-70.4,62.02,69,35,9.13,1601413200
38,RU,Severo-Kuril'sk,50.6789,156.125,51.75,89,81,10.85,1601413200
39,MR,Adrar,20.5022,-10.0711,97.11,15,0,7.7,1601413200
40,BY,Forsytheganj,52.6333,29.7333,57.25,71,97,9.08,1601413200
41,ZA,Port Elizabeth,-33.918,25.5701,55.65,78,13,1.68,1601413200
42,TR,Muş Province,39.0,41.75,57.51,49,0,4.81,1601413200
43,PE,Hualmay,-11.0964,-77.6139,67.42,68,21,10.56,1601413200
44,PT,Barcelos,41.5388,-8.6151,60.06,85,0,4.59,1601413200
45,AU,Busselton,-33.65,115.3333,58.15,85,92,7.85,1601413200
46,CA,Penhold,52.1334,-113.8687,52.36,56,94,12.06,1601413200
47,CA,Tuktoyaktuk,69.4541,-133.0374,36.25,90,40,9.86,1601413200
48,SB,Buala,-8.145,159.5921,80.71,78,84,4.21,1601413200
49,JP,Muroto-misakicho,33.2833,134.15,73.18,74,78,10.92,1601413200
50,RU,Irbeyskoye,55.6428,95.4522,33.21,93,100,5.12,1601413200
51,CA,Prince Albert,53.2001,-105.7677,63.09,32,51,21.3,1601413200
52,TO,Vaini,-21.2,-175.2,77.14,90,84,15.68,1601413200
53,NA,Henties Bay,-22.116,14.2845,54.79,82,1,5.32,1601413200
54,NZ,Kaitangata,-46.2817,169.8464,42.94,70,53,12.93,1601413200
55,LR,Harper,4.375,-7.7169,77.22,89,42,8.1,1601413200
56,MY,George Town,5.4112,100.3354,78.84,88,54,4.09,1601413200
57,CL,Coquimbo,-29.9533,-71.3436,58.57,62,10,11.27,1601413200
58,RU,Chokurdakh,70.6333,147.9167,35.44,95,54,6.67,1601413200
59,AO,Mossamedes,-15.1961,12.1522,62.62,84,31,2.98,1601413200
60,RU,Anadyr,64.75,177.4833,40.48,87,13,8.81,1601413200
61,MX,Ixtapa,20.7,-105.2,87.12,75,63,5.1,1601413200
62,BR,Cidreira,-30.1811,-50.2056,63.52,80,40,19.46,1601413200
63,US,Fortuna,40.5982,-124.1573,83.84,39,1,5.93,1601413200
64,GL,Qaanaaq,77.484,-69.3632,15.62,81,40,7.0,1601413200
65,AI,The Valley,18.217,-63.0578,84.45,77,23,19.71,1601413200
66,BR,Castro,-24.7911,-50.0119,80.13,55,42,6.96,1601413200
67,ZA,Colesberg,-30.72,25.0972,50.09,41,0,10.25,1601413200
68,EC,Puerto Ayora,-0.7393,-90.3518,69.84,76,86,9.95,1601413200
69,SA,Faya,18.3851,42.4509,66.04,58,2,1.95,1601413200
70,NZ,Bluff,-46.6,168.3333,45.14,81,95,16.17,1601413200
71,ZA,Saldanha,-33.0117,17.9442,55.53,72,0,18.95,1601413200
72,MX,Sonoita,31.85,-112.8333,101.68,10,0,4.43,1601413200
73,ZA,Cape Town,-33.9258,18.4232,55.54,65,0,12.37,1601413200
74,AU,New Norfolk,-42.7826,147.0587,48.06,70,100,2.08,1601413200
75,RU,Isil'kul',54.9109,71.2728,39.47,73,49,4.43,1601413200
76,MN,Khovd,48.0056,91.6419,39.09,66,88,4.61,1601413200
77,CA,Dauphin,51.1494,-100.0502,64.27,41,87,16.08,1601413200
78,RE,Saint-Philippe,-21.3585,55.7679,71.22,78,47,7.76,1601413200
79,ID,Tual,-5.6667,132.75,81.5,80,62,18.52,1601413200
80,AR,Chacabuco,-34.6417,-60.4739,73.27,52,0,7.0,1601413200
81,YE,Muhafazat Lahij,13.1667,44.5833,82.4,65,8,4.47,1601413200
82,PT,Ponta do Sol,32.6667,-17.1,68.94,75,55,7.52,1601413200
83,AU,Broken Hill,-31.95,141.4333,56.39,77,41,2.89,1601413200
84,CL,Constitución,-35.3333,-72.4167,53.56,72,97,15.68,1601413200
85,ZA,Hermanus,-34.4187,19.2345,53.06,71,19,6.76,1601413200
86,CA,Clyde River,70.4692,-68.5914,27.77,86,54,9.19,1601413200
87,LK,Kalmunai,7.4167,81.8167,79.3,80,98,10.98,1601413200
88,PT,Ribeira Grande,38.5167,-28.7,66.96,69,11,12.82,1601413200
89,RU,Saskylakh,71.9167,114.0833,26.04,97,47,7.0,1601413200
90,PL,Siemiatycze,52.4272,22.8623,52.72,82,95,9.51,1601413200
91,CU,Gibara,21.1097,-76.1317,90.43,55,22,10.78,1601413200
92,US,Española,35.9911,-106.0806,73.44,19,1,0.98,1601413200
93,SO,Bosaso,11.2842,49.1816,84.94,63,45,0.72,1601413200
94,BB,Bathsheba,13.2167,-59.5167,84.69,76,67,16.4,1601413200
95,ZA,East London,-33.0153,27.9116,60.48,65,59,2.42,1601413200
96,RU,Dudinka,69.4058,86.1778,36.3,98,95,12.86,1601413200
97,AU,Hobart,-42.8794,147.3294,50.92,65,95,6.67,1601413200
98,CA,Burns Lake,54.2331,-125.7533,50.07,87,100,2.04,1601413200
99,CV,Praia,14.9215,-23.5087,80.01,73,27,13.8,1601413200
100,AU,Palmerston,-12.486,130.9833,78.4,82,69,5.19,1601413200
101,NA,Katima Mulilo,-17.5,24.2667,80.89,31,46,5.23,1601413200
102,AU,Geraldton,-28.7667,114.6,58.12,84,20,8.21,1601413200
103,ZA,Bredasdorp,-34.5322,20.0403,48.09,80,27,2.48,1601413200
104,CN,Erenhot,43.6475,111.9767,49.32,46,58,9.73,1601413200
105,ID,Bengkulu,-3.8004,102.2655,76.01,88,64,7.36,1601413200
106,US,Rockport,28.0206,-97.0544,80.26,26,1,13.69,1601413200
107,BR,Arraial do Cabo,-22.9661,-42.0278,74.35,90,29,13.62,1601413200
108,OM,Salalah,17.0151,54.0924,76.59,82,10,5.55,1601413200
109,GB,Penzance,50.1186,-5.5371,57.06,78,68,17.47,1601413200
110,VE,San Cristobal,7.7669,-72.225,83.62,54,66,6.55,1601413200
111,RU,Dubki,43.0225,46.8372,57.07,64,54,9.17,1601413200
112,RU,Pushkinskiye Gory,57.0209,28.9103,48.69,94,4,4.25,1601413200
113,AU,Yeppoon,-23.1333,150.7333,68.4,68,33,13.78,1601413200
114,AU,Cairns,-16.9167,145.7667,72.64,66,79,10.56,1601413200
115,US,Sitka,57.0531,-135.33,51.89,73,95,6.4,1601413200
116,MM,Lashio,22.9333,97.75,68.14,98,59,0.92,1601413200
117,AU,Canberra,-35.2835,149.1281,48.34,87,100,2.04,1601413200
118,ML,Douentza,14.9951,-2.9517,95.83,25,81,6.49,1601413200
119,AU,Codrington,-38.2667,141.9667,54.0,93,100,11.63,1601413200
120,KZ,Kushmurun,52.4503,64.6311,49.75,87,50,7.11,1601413200
121,RU,Verkhoyansk,67.5447,133.385,35.24,79,49,21.12,1601413200
122,IS,Grindavik,63.8424,-22.4338,44.55,77,20,6.04,1601413200
123,RU,Teeli,51.0333,90.2333,38.61,80,100,2.75,1601413200
124,US,Saint Paul Harbor,57.79,-152.4072,49.33,82,95,27.98,1601413200
125,US,Hilo,19.7297,-155.09,81.68,67,4,10.83,1601413200
126,JP,Nago,26.5881,127.9761,77.18,77,85,6.96,1601413200
127,PE,Chimbote,-9.0853,-78.5783,66.49,71,12,11.03,1601413200
128,CA,Torbay,47.6666,-52.7314,66.67,85,85,15.75,1601413200
129,ID,Palu,-0.8917,119.8707,74.52,80,72,2.98,1601413200
130,CD,Kisangani,0.5167,25.2,71.24,97,100,0.67,1601413200
131,SJ,Longyearbyen,78.2186,15.6401,40.69,84,95,7.63,1601413200
132,ZA,Port Alfred,-33.5906,26.891,57.22,70,29,4.54,1601413200
133,AU,Port Lincoln,-34.7333,135.8667,54.9,88,72,14.61,1601413200
134,RU,Aykhal,66.0,111.5,22.14,94,91,12.21,1601413200
135,EG,Maţāy,28.419,30.7792,87.89,29,0,16.37,1601413200
136,CK,Avarua,-21.2078,-159.775,76.15,80,32,19.6,1601413200
137,PT,Vila Franca do Campo,37.7167,-25.4333,65.5,79,30,8.12,1601413200
138,NZ,Ahipara,-35.1667,173.1667,56.19,64,84,8.77,1601413200
139,NO,Stokmarknes,68.5646,14.9108,51.33,93,86,2.75,1601413200
140,AU,Mount Gambier,-37.8333,140.7667,53.89,95,93,9.15,1601413200
141,CA,Yellowknife,62.456,-114.3525,44.73,75,87,12.28,1601413200
142,GL,Nanortalik,60.1432,-45.2371,37.4,73,0,25.43,1601413200
143,SA,Sakakah,29.9697,40.2064,80.01,21,0,6.33,1601413200
144,CN,Baoying,33.2292,119.3092,62.19,86,0,7.16,1601413200
145,NZ,Te Anau,-45.4167,167.7167,35.98,91,65,1.7,1601413200
146,CA,Halifax,44.6453,-63.5724,68.02,94,59,11.88,1601413200
147,MX,San Buenaventura,27.0833,-101.5333,77.2,22,0,5.39,1601413200
148,BR,Touros,-5.1989,-35.4608,77.97,70,40,14.38,1601413200
149,CL,Lebu,-37.6167,-73.65,51.1,87,97,22.06,1601413200
150,MV,Thinadhoo,0.5333,72.9333,81.43,79,87,10.29,1601413200
151,BW,Kalakamati,-20.5929,27.3121,67.93,58,50,9.64,1601413200
152,RU,Vrangel',42.7297,133.0839,53.89,65,100,7.25,1601413200
153,CA,Port Hardy,50.6996,-127.4199,64.45,82,3,3.09,1601413200
154,IR,Bushehr,28.9684,50.8385,85.82,65,0,9.62,1601413200
155,US,Huron,41.1501,-82.5499,60.01,68,63,9.66,1601413200
156,SS,Bentiu,9.2333,29.8333,75.22,89,100,2.82,1601413200
157,RU,Srednekolymsk,67.45,153.6833,42.22,83,81,7.4,1601413200
158,US,Barrow,71.2906,-156.7887,32.38,97,94,11.07,1601413200
159,NZ,Tuatapere,-46.1333,167.6833,42.64,84,97,5.61,1601413200
160,IT,Lipari,38.4674,14.954,70.75,74,73,7.43,1601413200
161,RU,Yerbogachën,61.2767,108.0108,27.64,92,91,3.69,1601413200
162,US,San Jose,37.3394,-121.895,97.32,32,46,3.98,1601413200
163,GL,Ilulissat,69.2167,-51.1,22.08,78,51,3.56,1601413200
164,US,Avera,33.194,-82.5271,69.94,60,95,11.03,1601413200
165,NZ,Whitianga,-36.8333,175.7,54.57,68,23,9.78,1601413200
166,BR,Codajás,-3.8367,-62.0569,94.21,44,67,3.65,1601413200
167,CA,Aklavik,68.2191,-135.0107,42.42,86,88,6.85,1601413200
168,HK,Hong Kong,22.2855,114.1577,80.55,85,21,9.62,1601413200
169,IR,Kashan,33.9831,51.4364,62.89,30,45,3.49,1601413200
170,NO,Skjervøy,70.0311,20.9714,52.99,78,28,7.07,1601413200
171,CD,Lubumbashi,-11.6609,27.4794,71.2,56,83,1.3,1601413200
172,ID,Labuhan,-6.8844,112.2051,78.44,78,39,8.81,1601413200
173,IN,Mānpur,22.4333,75.6167,71.2,84,0,4.81,1601413200
174,IT,Laas,46.6166,10.7002,47.25,68,69,5.3,1601413200
175,GA,Omboué,-1.5746,9.2618,75.83,76,42,8.23,1601413200
176,RU,Pevek,69.7008,170.3133,37.62,78,100,19.48,1601413200
177,US,Bud,39.447,-86.1758,60.57,61,61,10.38,1601413200
178,US,Nome,64.5011,-165.4064,40.68,75,69,3.24,1601413200
179,AU,Nhulunbuy,-12.2333,136.7667,78.6,80,69,12.33,1601413200
180,LY,Sabha,27.0377,14.4283,89.51,14,0,12.91,1601413200
181,US,Mayo,38.8876,-76.5119,75.09,88,52,14.74,1601413200
182,RU,Ozernovskiy,51.5,156.5167,50.81,88,95,12.1,1601413200
183,LY,Benghazi,32.1167,20.0667,76.46,70,0,18.86,1601413200
184,BR,São José de Ribamar,-2.5619,-44.0542,82.33,78,53,14.74,1601413200
185,GL,Tasiilaq,65.6145,-37.6368,31.53,87,87,6.11,1601413200
186,US,Pecos,31.4229,-103.4932,77.86,15,1,3.89,1601413200
187,MX,Guerrero Negro,27.9769,-114.0611,93.9,30,0,11.36,1601413200
188,US,Coos Bay,43.3665,-124.2179,80.85,39,1,5.86,1601413200
189,MX,San Patricio,19.2167,-104.7,89.42,65,52,9.48,1601413200
190,AR,Necochea,-38.5473,-58.7368,68.22,57,11,11.41,1601413200
191,MM,Thongwa,16.7619,96.5278,77.58,93,59,1.92,1601413200
192,PG,Lorengau,-2.0226,147.2712,81.63,79,30,9.08,1601413200
193,JP,Hasaki,35.7333,140.8333,68.67,79,69,17.83,1601413200
194,MV,Hithadhoo,-0.6,73.0833,83.57,73,44,10.56,1601413200
195,AU,Lithgow,-33.4833,150.15,47.32,80,97,2.15,1601413200
196,KH,Lumphat,13.4878,106.9816,73.31,98,100,0.94,1601413200
197,RU,Bystryy Istok,52.371,84.3873,37.45,93,99,8.68,1601413200
198,CL,Valparaíso,-33.0393,-71.6273,55.24,61,15,4.79,1601413200
199,RU,Tungor,53.3808,142.9564,42.48,91,54,5.7,1601413200
200,RU,Khatanga,71.9667,102.5,31.48,99,100,9.13,1601413200
201,PG,Samarai,-10.6167,150.6667,78.53,84,67,16.98,1601413200
202,PE,Pisco,-13.7,-76.2167,67.95,65,29,9.22,1601413200
203,ID,Boyolangu,-8.1181,111.8935,74.14,90,74,3.0,1601413200
204,ES,Bereda,43.2686,-7.5406,53.08,97,0,0.4,1601413200
205,GL,Maniitsoq,65.4167,-52.9,30.34,87,22,5.97,1601413200
206,ZA,Richards Bay,-28.783,32.0377,62.8,82,99,5.12,1601413200
207,MU,Mahébourg,-20.4081,57.7,72.81,83,70,10.18,1601413200
208,NO,Sørland,67.667,12.6934,50.47,90,87,6.24,1601413200
209,MX,Monterrey,25.6667,-100.3167,77.67,27,21,6.26,1601413200
210,ID,Kramat,-8.1311,113.4499,73.67,86,93,0.85,1601413200
211,BR,Correntina,-13.3433,-44.6367,94.37,13,0,3.94,1601413200
212,ZA,Springbok,-29.6643,17.8865,53.04,34,0,4.99,1601413200
213,US,Nantucket,41.2835,-70.0995,69.6,91,63,10.49,1601413200
214,RU,Talnakh,69.4865,88.3972,35.22,98,95,10.47,1601413200
215,ID,Padang,-0.9492,100.3543,76.5,74,73,4.9,1601413200
216,KI,Butaritari,3.0707,172.7902,82.08,74,64,14.14,1601413200
217,RU,Leningradskiy,69.3833,178.4167,35.47,82,73,9.33,1601413200
218,HU,Kocsér,47.0017,19.9207,52.14,81,27,13.65,1601413200
219,CN,Enshi,30.3,109.4833,61.57,84,56,1.7,1601413200
220,VN,Vung Tau,10.346,107.0843,79.93,84,98,9.22,1601413200
221,ID,Merauke,-8.4667,140.3333,77.7,76,89,15.88,1601413200
222,BO,Santa Cruz de la Sierra,-17.8,-63.1667,93.88,38,29,16.2,1601413200
223,US,College,64.8569,-147.8028,50.61,77,71,2.98,1601413200
224,BR,Guarapari,-20.6667,-40.4975,77.97,82,36,2.35,1601413200
225,US,Bethel,41.3712,-73.414,69.58,91,95,8.46,1601413200
226,SO,Berbera,10.4396,45.0143,88.88,67,86,9.55,1601413200
227,BR,Carutapera,-1.195,-46.02,83.95,67,6,8.14,1601413200
228,CG,Owando,-0.4819,15.8999,73.06,89,70,1.92,1601413200
229,RU,Yar-Sale,66.8333,70.8333,40.77,78,93,6.29,1601413200
230,BD,Lālmohan,22.3384,90.7419,83.08,82,93,7.23,1601413200
231,BR,Alta Floresta,-9.8756,-56.0861,96.3,29,55,0.74,1601413200
232,US,Half Moon Bay,37.4636,-122.4286,73.22,61,8,5.39,1601413200
233,JP,Hirara,24.8,125.2833,77.97,72,38,18.9,1601413200
234,RS,Novi Pazar,43.1367,20.5122,51.58,82,87,3.02,1601413200
235,UA,Novi Sanzhary,49.3439,34.3108,63.73,53,95,17.45,1601413200
236,RU,Divnomorskoye,44.5011,38.1353,72.41,61,87,6.15,1601413200
237,SV,Acajutla,13.5928,-89.8275,85.59,62,43,5.55,1601413200
238,BR,Muaná,-1.5283,-49.2167,89.71,51,18,5.21,1601413200
239,BR,Aripuanã,-9.1667,-60.6333,89.53,49,49,3.18,1601413200
240,NE,Dogondoutchi,13.6393,4.0287,93.0,39,71,16.08,1601413200
241,FI,Kemijärvi,66.7131,27.4306,45.19,94,90,4.25,1601413200
242,MY,Sibu,2.3,111.8167,74.32,99,59,1.79,1601413200
243,CN,Xining,36.6167,101.7667,52.29,71,84,1.48,1601413200
244,BR,Sengés,-24.1128,-49.4636,79.56,71,61,6.62,1601413200
245,AU,Esperance,-33.8667,121.9,58.51,90,71,11.61,1601413200
246,NE,Bilma,18.6853,12.9164,95.4,10,14,6.04,1601413200
247,GF,Cayenne,4.9333,-52.3333,84.99,66,31,6.58,1601413200
248,NZ,Dunedin,-45.8742,170.5036,42.39,68,86,16.98,1601413200
249,GD,St. George's,12.0564,-61.7485,86.58,72,13,13.89,1601413200
250,LV,Ventspils,57.3894,21.5606,52.57,91,6,7.34,1601413200
251,OM,Nizwá,22.9333,57.5333,81.57,27,22,2.08,1601413200
252,JP,Fukuechō,32.6881,128.8419,70.92,78,14,15.41,1601413200
253,MX,Cocorit,27.5833,-109.9667,105.78,13,3,7.05,1601413200
254,US,Richmond,37.5538,-77.4603,79.39,71,91,10.25,1601413200
255,BF,Dédougou,12.4667,-3.4667,85.59,53,81,7.47,1601413200
256,NC,Poum,-20.2333,164.0167,69.71,72,9,17.22,1601413200
257,RU,Provideniya,64.3833,-173.3,39.81,78,63,3.44,1601413200
258,BR,Diamantino,-14.4086,-56.4461,102.29,16,68,2.89,1601413200
259,AU,Katherine,-14.4667,132.2667,79.14,66,54,5.1,1601413200
260,RU,Mayna,54.1135,47.6231,51.4,64,100,4.7,1601413200
261,CA,Prince George,53.9166,-122.753,53.56,82,87,1.63,1601413200
262,PT,Seara,41.1818,-7.8003,67.75,24,22,2.35,1601413200
263,RU,Poronaysk,49.2167,143.1167,47.61,82,1,3.15,1601413200
264,AR,Bahía Blanca,-38.7196,-62.2724,75.24,23,36,10.51,1601413200
265,RU,Alekseyevsk,57.8406,108.3492,37.13,91,100,8.03,1601413200
266,AO,Soyo,-6.1349,12.3689,74.61,80,82,7.7,1601413200
267,US,Fairbanks,64.8378,-147.7164,50.92,83,70,3.02,1601413200
268,MX,San Quintín,30.4833,-115.95,87.91,36,0,12.59,1601413200
269,BR,Cabedelo,-6.9811,-34.8339,77.58,75,40,12.39,1601413200
270,US,Pascagoula,30.3658,-88.5561,75.78,46,37,14.07,1601413200
271,US,Worthington,40.0931,-83.018,61.66,58,69,6.69,1601413200
272,AU,Kiama,-34.6833,150.8667,56.71,69,99,9.51,1601413200
273,MX,Coahuayana Viejo,18.7333,-103.6833,88.23,72,49,6.64,1601413200
274,MU,Bambous Virieux,-20.3428,57.7575,72.48,83,76,10.18,1601413200
275,LK,Galle,6.0367,80.217,79.38,84,100,8.99,1601413200
276,ID,Biak,-0.9131,122.8766,76.6,80,80,2.48,1601413200
277,CA,La Tuque,47.4334,-72.7824,60.42,84,100,7.65,1601413200
278,CN,Jieshi,22.8134,115.8257,78.73,83,64,7.27,1601413200
279,CA,Hay River,60.8156,-115.7999,48.99,75,87,17.49,1601413200
280,RU,Zhigansk,66.7697,123.3711,32.45,94,98,21.07,1601413200
281,AR,Rawson,-43.3002,-65.1023,52.02,68,40,13.56,1601413200
282,BR,Maceió,-9.6658,-35.7353,76.98,74,13,10.67,1601413200
283,RU,Deputatsky,69.3,139.9,32.83,98,68,2.57,1601413200
284,CV,Vila do Maio,15.1333,-23.2167,79.93,75,41,14.67,1601413200
285,US,Kapaa,22.0752,-159.319,81.95,65,1,7.67,1601413200
286,US,Laguna,38.421,-121.4238,96.67,16,3,4.07,1601413200
287,MY,Sri Aman,1.2376,111.4621,74.84,96,86,0.67,1601413200
288,VE,Upata,8.0086,-62.3989,88.0,62,94,3.85,1601413200
289,NA,Lüderitz,-26.6481,15.1594,62.51,43,0,22.17,1601413200
290,BR,Itamaracá,-7.7478,-34.8256,78.4,72,43,9.53,1601413200
291,US,Lompoc,34.6391,-120.4579,82.31,49,1,10.09,1601413200
292,CV,São Filipe,14.8961,-24.4956,80.2,76,13,10.38,1601413200
293,VN,Kon Tum,14.35,108.0,70.75,93,100,1.21,1601413200
294,IR,Minudasht,37.2289,55.3747,58.37,32,10,3.04,1601413200
295,ET,Bonga,7.2833,36.2333,60.66,90,83,1.52,1601413200
296,LY,Jalu,29.0331,21.5482,89.96,18,0,3.94,1601413200
297,BR,Oriximiná,-1.7656,-55.8661,96.98,32,20,6.46,1601413200
298,US,Kīhei,20.785,-156.4656,83.57,56,23,9.82,1601413200
299,PG,Port Moresby,-9.4431,147.1797,76.32,85,67,12.28,1601413200
300,ID,Luwuk,-0.9516,122.7875,77.32,77,85,2.15,1601413200
301,MX,Cabo San Lucas,22.8909,-109.9124,89.67,59,3,9.64,1601413200
302,RU,Petropavlovka,50.6114,105.3196,40.19,71,55,4.03,1601413200
303,IN,Ponnāni,10.767,75.9252,78.13,86,69,5.86,1601413200
304,PG,Vanimo,-2.6741,141.3028,78.55,83,86,4.25,1601413200
305,GL,Narsaq,60.9167,-46.05,33.58,61,0,4.25,1601413200
306,RU,Luga,58.7372,29.8453,53.82,93,98,3.62,1601413200
307,US,Batavia,41.85,-88.3126,59.54,65,70,11.03,1601413200
308,GB,Lerwick,60.1545,-1.1494,51.3,82,39,12.59,1601413200
309,RU,Muyezerskiy,63.9333,31.65,46.62,94,49,4.43,1601413200
310,JP,Nara,34.6851,135.8049,66.24,80,60,1.81,1601413200
311,PE,Pacasmayo,-7.4006,-79.5714,66.9,69,4,13.69,1601413200
312,IN,Kattivākkam,13.2167,80.3167,79.32,91,95,11.97,1601413200
313,RU,Severnyy,50.677,36.5532,60.06,44,69,12.62,1601413200
314,US,Artesia,33.8658,-118.0831,93.06,32,1,8.32,1601413200
315,PH,Marawi,7.9986,124.2928,70.39,90,87,1.9,1601413200
316,KZ,Shar,49.5886,81.0453,38.82,80,77,13.35,1601413200
317,UA,Chudniv,50.052,28.1175,58.21,90,92,15.61,1601413200
318,PE,Ayaviri,-14.8864,-70.5889,52.93,50,77,7.7,1601413200
319,NA,Eenhana,-17.4667,16.3333,76.68,14,0,4.9,1601413200
320,RU,Talaya,61.3833,152.75,36.48,90,100,5.32,1601413200
321,CO,Landázuri,6.2183,-73.8112,81.16,62,54,3.13,1601413200
322,IQ,Baghdad,33.3406,44.4009,83.34,24,0,10.25,1601413200
323,NO,Havøysund,70.9963,24.6622,50.56,88,19,12.75,1601413200
324,RU,Yemel'yanovo,56.1681,92.6767,28.27,98,40,3.69,1601413200
325,BW,Nokaneng,-19.6667,22.2667,77.04,18,6,9.64,1601413200
326,FR,Pont-à-Mousson,48.9079,6.0589,55.08,97,100,4.14,1601413200
327,CA,Wiarton,44.7407,-81.1332,58.66,71,95,11.79,1601413200
328,GB,Salisbury,51.0693,-1.7957,53.1,80,52,4.9,1601413200
329,NO,Vardø,70.3705,31.1107,50.22,89,20,14.45,1601413200
330,US,Billings Metropolitan Area,45.7833,-108.5007,85.78,13,10,19.06,1601413200
331,CA,Pangnirtung,66.1451,-65.7125,30.72,87,10,2.68,1601413200
332,MR,Atar,20.5169,-13.0499,97.12,20,0,6.06,1601413200
333,CA,Moose Factory,51.2585,-80.6094,50.9,93,95,7.9,1601413200
334,BO,La Paz,-16.5,-68.15,50.97,62,84,7.78,1601413200
335,CA,Iqaluit,63.7506,-68.5145,26.83,75,10,3.98,1601413200
336,TZ,Lulindi,-10.8167,39.1333,69.13,81,25,6.85,1601413200
337,PF,Faanui,-16.4833,-151.75,78.67,79,7,23.15,1601413200
338,RU,Tiksi,71.6872,128.8694,33.3,96,100,4.94,1601413200
339,ML,Kidal,18.4411,1.4078,97.84,11,71,8.48,1601413200
340,AU,Sydney,-33.8679,151.2073,55.53,75,87,5.73,1601413200
341,BJ,Abomey,7.1829,1.9912,74.3,94,80,4.9,1601413200
342,MU,Souillac,-20.5167,57.5167,72.63,84,50,8.93,1601413200
343,CN,Aksu,41.1231,80.2644,59.59,33,34,4.38,1601413200
344,ZA,Kruisfontein,-34.0033,24.7314,48.61,82,0,5.91,1601413200
345,US,Charleston,32.7766,-79.9309,78.22,87,66,8.03,1601413200
346,RO,Ripiceni,47.95,27.1333,56.16,90,69,14.27,1601413200
347,IN,Dwārāhāt,29.7833,79.4333,60.4,86,0,3.09,1601413200
348,IT,Ventimiglia,43.7935,7.6026,65.17,69,87,5.59,1601413200
349,TH,Pak Chong,14.708,101.4161,73.09,92,100,2.93,1601413200
350,US,Portland,45.5234,-122.6762,85.32,28,0,2.33,1601413200
351,AU,Nelson Bay,-32.7167,152.15,57.47,82,85,13.53,1601413200
352,RO,Asău,46.4333,26.4,53.78,88,98,6.35,1601413200
353,MG,Morondava,-20.2833,44.2833,77.68,68,0,11.81,1601413200
354,ID,Martapura,-3.4167,114.85,75.52,97,95,1.74,1601413200
355,PG,Namatanai,-3.6667,152.4333,80.71,80,72,6.8,1601413200
356,MU,Grand Gaube,-20.0064,57.6608,73.27,81,100,12.97,1601413200
357,SB,Auki,-8.7676,160.7034,80.08,71,11,4.12,1601413200
358,RU,Berdigestyakh,62.0989,126.6992,29.41,98,33,4.83,1601413200
359,UA,Novovasylivka,46.8315,35.7536,68.94,65,56,15.5,1601413200
360,RU,Nizhniy Baskunchak,48.2198,46.8311,57.06,37,12,8.93,1601413200
361,RU,Lavrentiya,65.5833,-171.0,36.46,83,0,1.01,1601413200
362,RU,Zakamensk,50.3741,103.2863,31.87,89,57,2.8,1601413200
363,US,Brownsville,25.9018,-97.4975,80.2,29,1,15.64,1601413200
364,ID,Tarakan,3.3,117.6333,79.16,81,97,5.41,1601413200
365,MT,Saint Lawrence,36.0553,14.204,73.36,68,0,12.37,1601413200
366,AU,Hervey Bay,-25.2986,152.8535,66.42,71,0,12.82,1601413200
367,CL,Ancud,-41.8697,-73.8203,37.65,95,100,12.71,1601413200
368,SO,Oddur,4.1213,43.8894,77.85,64,94,15.9,1601413200
369,RU,Tilichiki,60.4667,166.1,41.05,90,100,8.81,1601413200
370,RU,Voznesen'ye,61.0106,35.4781,51.01,92,88,2.64,1601413200
371,IN,Yārāda,17.65,83.2667,83.52,83,95,6.11,1601413200
372,IL,Netivot,31.4222,34.5886,76.12,84,0,1.77,1601413200
373,IN,Bolpur,23.6667,87.7167,80.55,84,98,4.74,1601413200
374,US,Eufaula,31.8913,-85.1455,66.51,72,95,10.22,1601413200
375,BO,Villazón,-22.0866,-65.5942,68.95,18,98,18.63,1601413200
376,CN,Ürümqi,43.801,87.6005,45.45,50,0,2.89,1601413200
377,US,Excelsior Springs,39.3392,-94.2261,68.65,37,12,12.08,1601413200
378,GB,Borehamwood,51.6547,-0.2776,56.5,79,42,4.27,1601413200
379,US,Ketchikan,55.3422,-131.6461,52.92,83,95,3.85,1601413200
380,SB,Gizo Government Station,-8.103,156.8419,81.48,78,84,11.03,1601413200
381,RE,Saint-Pierre,-21.3393,55.4781,72.34,77,32,5.14,1601413200
382,IR,Chabahar,25.2919,60.643,81.5,79,0,5.7,1601413200
383,RU,Kortkeros,61.8106,51.5806,47.98,92,82,3.78,1601413200
384,IR,Susa,32.1942,48.2436,80.87,35,0,9.57,1601413200
385,SO,Mogadishu,2.0371,45.3438,78.26,81,22,13.69,1601413200
386,YE,Marzuq,14.4,46.4667,77.32,57,23,5.46,1601413200
387,US,San Angelo,31.4638,-100.437,78.98,15,1,9.13,1601413200
388,RO,Bucureşci,46.1333,22.9,49.35,90,71,3.85,1601413200
389,MX,Isla Mujeres,21.2311,-86.731,86.83,69,22,4.41,1601413200
390,JP,Shibukawa,36.4833,139.0,57.18,80,100,3.44,1601413200
391,ID,Sigli,5.3848,95.9609,78.85,80,94,4.05,1601413200
392,VU,Isangel,-19.55,169.2667,72.93,85,74,20.45,1601413200
393,US,Brenham,30.1669,-96.3977,78.08,27,1,8.41,1601413200
394,ZA,Plettenberg Bay,-34.0527,23.3716,53.47,71,7,4.54,1601413200
395,GA,Mayumba,-3.432,10.6554,75.61,79,87,7.02,1601413200
396,BR,Buritis,-15.6178,-46.4233,96.26,11,29,4.88,1601413200
397,CD,Bongandanga,1.5,21.05,70.47,96,83,0.43,1601413200
398,IN,Tura,25.5198,90.2201,74.35,89,37,2.13,1601413200
399,AR,Mar del Plata,-38.0023,-57.5575,67.73,54,17,11.9,1601413200
400,RU,Sobolevo,54.4299,31.8996,51.39,74,70,8.75,1601413200
401,RU,Beringovskiy,63.05,179.3167,43.02,70,9,1.88,1601413200
402,BR,Caravelas,-17.7125,-39.2481,78.44,73,0,8.41,1601413200
403,IS,Vestmannaeyjar,63.4427,-20.2734,45.72,78,100,10.38,1601413200
404,CD,Kampene,-3.6,26.6667,68.79,97,97,2.28,1601413200
405,EG,Assiut,27.181,31.1837,87.28,34,0,12.62,1601413200
406,NZ,Kaeo,-35.1,173.7833,55.74,67,54,5.5,1601413200
407,TH,Kathu,7.9178,98.3332,80.74,83,52,2.08,1601413200
408,PE,Barranca,-10.75,-77.7667,66.16,71,19,10.65,1601413200
409,SL,Bonthe,7.5264,-12.505,79.45,86,89,7.85,1601413200
410,BR,Bagé,-31.3314,-54.1069,65.01,66,69,8.03,1601413200
411,VE,San Felipe,10.3399,-68.7425,88.3,56,26,3.51,1601413200
412,AU,Innisfail,-17.5333,146.0333,70.5,85,50,5.77,1601413200
413,KE,Lamu,-2.2717,40.902,76.93,81,42,12.57,1601413200
414,BS,Alice Town,25.7167,-79.3,83.89,74,9,9.17,1601413200
415,PF,Tautira,-17.7333,-149.15,80.19,72,15,23.02,1601413200
416,PK,Jiwani,25.05,61.7417,81.12,77,0,2.82,1601413200
417,CA,Shaunavon,49.6501,-108.4181,63.14,44,29,17.11,1601413200
418,KZ,Shetpe,44.1667,52.1167,57.11,37,0,10.89,1601413200
419,ZA,Oudtshoorn,-33.5907,22.2014,49.15,80,9,1.63,1601413200
420,SO,Bandarbeyla,9.4942,50.8122,78.04,82,70,22.73,1601413200
421,SE,Skellefteå,64.7507,20.9528,48.0,97,80,2.86,1601413200
422,CA,Flin Flon,54.7682,-101.865,58.78,49,54,13.56,1601413200
423,CN,Hailar,49.2,119.7,37.63,78,49,6.35,1601413200
424,NU,Alofi,-19.0595,-169.9187,78.04,84,72,22.68,1601413200
425,RU,Olenino,56.2092,33.4889,51.96,80,93,5.86,1601413200
426,RU,Plastun,44.7561,136.2939,47.59,80,94,7.43,1601413200
427,US,Valley City,46.9233,-98.0032,69.75,29,36,18.21,1601413200
428,CA,Matagami,49.7502,-77.6328,56.57,73,85,12.21,1601413200
429,NI,Corn Island,12.1694,-83.0418,84.4,71,95,8.28,1601413200
430,KR,Seoul,37.5683,126.9778,66.27,81,33,1.79,1601413200
431,TR,Boyabat,41.4689,34.7667,67.26,69,73,0.27,1601413200
432,US,Fairhope,30.523,-87.9033,73.18,52,49,10.98,1601413200
433,GH,Navrongo,10.8956,-1.0921,79.54,77,23,6.2,1601413200
434,CV,Mindelo,16.8901,-24.9804,79.12,76,47,18.21,1601413200
435,PT,Lata,40.1629,-8.3327,61.72,70,27,2.06,1601413200
436,US,Pacifica,37.6138,-122.4869,69.1,76,50,7.16,1601413200
437,US,Hamilton,39.1834,-84.5333,64.42,56,69,4.94,1601413200
438,CF,Birao,10.2849,22.7882,76.39,83,86,3.04,1601413200
439,US,Lander,42.833,-108.7307,76.05,17,1,4.7,1601413200
440,BR,Altamira,-3.2033,-52.2064,89.2,52,45,3.15,1601413200
441,CL,Concepción,-36.827,-73.0498,51.49,88,95,21.94,1601413200
442,SO,Hobyo,5.3505,48.5268,77.54,85,9,15.32,1601413200
443,PY,Capiíbary,-24.8,-56.0333,90.14,42,56,3.83,1601413200
444,AF,Rūdbār,30.15,62.6,63.1,29,7,11.56,1601413200
445,GW,Bubaque,11.2833,-15.8333,82.49,76,53,7.29,1601413200
446,BR,Vila Velha,-20.3297,-40.2925,78.57,80,13,7.92,1601413200
447,UY,Chui,-33.6971,-53.4616,62.47,62,15,9.64,1601413200
448,GT,Champerico,14.3,-91.9167,85.35,65,28,10.07,1601413200
449,RU,Toora-Khem,52.4675,96.11,32.92,94,99,2.15,1601413200
450,PL,Gubin,51.9496,14.7284,53.58,79,91,4.52,1601413200
451,NA,Mariental,-24.6333,17.9667,61.95,24,0,13.69,1601413200
452,BR,Olinda,-8.0089,-34.8553,78.96,70,39,10.18,1601413200
453,IN,Kāranja,20.4833,77.4833,73.36,80,99,5.73,1601413200
454,GB,Warrington,53.3925,-2.5802,54.79,78,59,6.02,1601413200
455,BW,Sekoma,-24.4,23.8833,61.05,21,0,10.07,1601413200
456,US,Juneau,58.3019,-134.4197,51.39,78,100,4.9,1601413200
457,MX,Barra de Tecoanapa,16.5167,-98.75,86.61,65,61,9.15,1601413200
458,CA,Ucluelet,48.9329,-125.5528,69.26,70,3,6.85,1601413200
459,RU,Baykit,61.67,96.37,29.32,95,44,3.76,1601413200
460,ID,Ambon City,-3.6954,128.1814,79.21,88,85,3.27,1601413200
461,SE,Uddevalla,58.3478,11.9424,55.33,84,88,3.76,1601413200
462,NG,Maiduguri,11.8464,13.1603,78.15,75,73,6.96,1601413200
463,PA,Río Hato,8.3833,-80.1667,85.66,69,66,5.48,1601413200
464,JP,Naze,28.3667,129.4833,75.2,86,94,9.35,1601413200
465,RU,Pangody,65.85,74.4859,37.92,83,85,8.37,1601413200
466,PH,Bacolod City,10.6667,122.95,77.52,85,96,5.59,1601413200
467,NO,Lakselv,70.0513,24.9718,47.1,84,14,7.99,1601413200
468,NZ,Waipawa,-41.4122,175.5153,46.17,68,20,2.28,1601413200
469,CO,Murillo,4.8739,-75.1715,68.77,71,67,2.73,1601413200
470,MN,Erdenet,49.0333,104.0833,38.95,67,86,3.78,1601413200
471,CA,Dryden,49.7833,-92.7503,55.69,65,40,9.53,1601413200
472,DZ,Sidi Ali,36.0998,0.4206,73.53,66,11,5.93,1601413200
473,CA,Goderich,43.7501,-81.7165,60.66,75,97,10.16,1601413200
474,NA,Rundu,-17.9333,19.7667,75.74,18,0,6.38,1601413200
475,ES,Arona,28.0996,-16.681,67.6,73,65,6.13,1601413200
476,BR,Nova Olinda do Norte,-3.8881,-59.0942,95.99,39,42,1.66,1601413200
477,UY,Rocha,-34.4833,-54.3333,65.59,61,0,7.65,1601413200
478,PT,Areosa,41.7178,-8.8571,61.38,87,0,11.77,1601413200
479,AR,San Rafael,-34.6177,-68.3301,75.2,18,0,7.78,1601413200
480,PE,Chicama,-7.8447,-79.1469,73.11,55,10,10.09,1601413200
481,GH,Salaga,8.5508,-0.5188,77.47,84,76,4.92,1601413200
482,SS,Raja,8.4596,25.678,72.45,86,97,3.36,1601413200
483,RU,Khovu-Aksy,51.1333,93.6,32.22,91,46,1.83,1601413200
484,ID,Amlapura,-8.45,115.6167,76.46,84,86,6.4,1601413200
485,RU,Yeniseysk,58.4497,92.1703,29.26,96,0,3.27,1601413200
486,PW,Kloulklubed,7.0419,134.2556,83.93,80,87,10.0,1601413200
487,US,Chalmette,29.9427,-89.9634,75.79,45,21,16.04,1601413200
488,UZ,Yangi Marg`ilon,40.4272,71.7189,54.64,41,60,1.52,1601413200
489,CA,High Level,58.5169,-117.136,56.8,44,29,12.15,1601413200
490,CN,Baiyin,36.5583,104.2081,58.33,68,87,6.44,1601413200
491,PG,Daru,-9.0763,143.2092,77.32,77,98,17.29,1601413200
492,US,Fairview,40.8126,-73.999,74.97,84,81,12.53,1601413200
493,VN,Phan Thiet,10.9333,108.1,76.93,86,97,6.11,1601413200
494,TH,Ko Samui,9.5357,99.9357,83.41,73,84,15.21,1601413200
495,RU,Kuytun,54.3419,101.5036,38.98,93,100,13.47,1601413200
496,UA,Horodnytsya,50.807,27.3168,59.13,86,100,12.8,1601413200
497,RU,Inta,66.0317,60.1659,48.09,91,100,16.4,1601413200
498,BR,São Paulo de Olivença,-3.3783,-68.8725,87.04,65,86,1.66,1601413200
499,PL,Oświęcim,50.0344,19.2104,53.35,89,95,8.39,1601413200
500,BR,Cassilândia,-19.1133,-51.7342,98.87,18,57,2.06,1601413200
501,PL,Hajnówka,52.7433,23.5812,53.65,81,100,8.05,1601413200
502,NE,Arlit,18.7369,7.3853,100.53,9,0,8.19,1601413200
503,GL,Nuuk,64.1835,-51.7216,32.65,75,10,9.17,1601413200
504,CA,Chase,50.8165,-119.6857,78.82,50,0,0.49,1601413200
505,AU,Adelaide,-34.9333,138.6,54.18,77,89,9.06,1601413200
506,KM,Mitsamiouli,-11.3847,43.2844,77.4,74,20,2.57,1601413200
507,SS,Kapoeta,4.7717,33.5903,78.39,71,87,8.25,1601413200
508,NP,Jumla,29.2747,82.1838,54.21,60,1,4.38,1601413200
509,MZ,Beira,-19.8436,34.8389,73.56,90,0,8.68,1601413200
510,RU,Mnogovershinnyy,53.9353,139.9242,43.27,99,91,3.56,1601413200
511,JP,Ryōtsu-minato,38.0833,138.4333,65.17,85,65,4.5,1601413200
512,ZW,Masvingo,-20.0637,30.8277,65.52,89,83,6.87,1601413200
513,CN,Nanchang,28.6833,115.8833,66.6,91,67,6.24,1601413200
514,PT,Camacha,33.0833,-16.3333,69.06,74,64,16.2,1601413200
515,CL,Santiago,-33.4569,-70.6483,62.47,45,17,6.58,1601413200
516,TD,Ati,13.2154,18.3353,84.6,63,75,8.23,1601413200
517,RE,Saint-Joseph,-21.3667,55.6167,70.68,79,39,7.61,1601413200
518,CD,Kindu,-2.95,25.95,70.61,97,100,2.19,1601413200
519,RU,Severo-Yeniseyskiy,60.3725,93.0408,24.82,99,65,3.56,1601413200
520,BR,Boa Vista,2.8197,-60.6733,92.75,43,55,4.68,1601413200
521,RU,Kazachka,53.3644,38.0694,56.32,39,100,13.35,1601413200
522,SB,Kirakira,-10.4544,161.9205,80.6,79,2,8.21,1601413200
523,RU,Kyshtovka,56.555,76.6271,36.18,84,65,3.91,1601413200
524,CN,Changli,39.7042,119.1506,51.96,47,0,4.72,1601413200
525,BR,Tutóia,-2.7619,-42.2744,82.18,73,4,10.18,1601413200
526,UA,Pidhorodne,48.5753,35.1068,66.16,45,59,14.07,1601413200
527,TO,Pangai,-19.8,-174.35,79.47,84,27,19.44,1601413200
528,MV,Ugoofaaru,5.6667,73.0,82.06,75,95,9.69,1601413200
529,BR,Parnamirim,-5.9156,-35.2628,76.82,71,30,8.39,1601413200
530,CA,Bay Roberts,47.5999,-53.2648,66.87,43,53,13.58,1601413200
531,NO,Sørkjosen,69.8,20.9333,49.98,73,22,3.18,1601413200
532,US,Kahului,20.8947,-156.47,82.18,59,27,9.01,1601413200
533,BO,Urubichá,-15.3833,-62.95,94.82,33,79,3.69,1601413200
534,KZ,Serebryansk,49.6925,83.2892,36.64,87,87,11.48,1601413200
535,JP,Tsuruga,35.6455,136.0558,65.32,87,55,2.39,1601413200
536,BR,São João da Barra,-21.6403,-41.0511,76.82,83,67,10.94,1601413200
537,ET,Āreka,7.0667,37.7,62.62,83,96,0.31,1601413200
538,NC,Vao,-22.6667,167.4833,67.5,75,1,22.59,1601413200
539,CL,Buin,-33.7333,-70.75,61.92,50,10,6.15,1601413200
540,TR,Mut,36.6439,33.4389,76.75,35,21,0.92,1601413200
541,AU,Yulara,-25.2406,130.9889,59.7,76,0,7.7,1601413200
542,AU,Flinders,-34.5833,150.8552,56.21,77,99,8.01,1601413200
543,RU,Cherskiy,68.75,161.3,39.61,73,100,12.93,1601413200
544,BR,Nhamundá,-2.1861,-56.7131,98.06,31,38,3.53,1601413200
545,KR,Gijang,35.2442,129.2139,63.97,77,81,7.7,1601413200
546,GL,Qasigiannguit,68.8193,-51.1922,22.98,79,45,3.65,1601413200
547,VE,San Carlos,9.6612,-68.5827,82.87,72,51,3.62,1601413200
548,TZ,Sokoni,-6.4333,39.55,77.77,80,18,12.77,1601413200
549,AU,Kununurra,-15.7667,128.7333,84.76,69,60,4.65,1601413200
550,RU,Batagay,67.6333,134.6333,34.95,83,55,9.33,1601413200
551,CN,Zhangjiakou Shi Xuanhua Qu,40.6103,115.0447,50.88,63,0,1.79,1601413200
552,PE,Iquitos,-3.7481,-73.2472,79.45,93,95,1.19,1601413200
553,RU,Staryy Nadym,65.6118,72.6842,38.98,89,90,8.05,1601413200
554,ID,Waingapu,-9.6567,120.2641,77.52,78,58,6.55,1601413200
555,MZ,Quelimane,-17.8786,36.8883,75.79,89,19,6.93,1601413200
556,GB,Brae,60.3964,-1.353,50.68,83,37,11.68,1601413200
557,RU,Sangar,63.9242,127.4739,30.61,97,75,5.55,1601413200
558,US,Superior,46.7208,-92.1041,61.03,54,81,10.85,1601413200
559,US,Sturgis,41.7992,-85.4192,60.37,54,53,10.6,1601413200
560,CA,Revelstoke,50.9832,-118.2023,77.68,53,1,2.82,1601413200
561,BW,Hukuntsi,-24.0,21.75,58.62,23,0,10.02,1601413200
562,RU,Uray,60.1247,64.7758,42.87,96,63,6.58,1601413200
563,PG,Wewak,-3.5534,143.6268,79.09,84,83,6.87,1601413200
564,US,Castle Rock,39.3722,-104.8561,75.81,18,0,6.35,1601413200
565,BS,Marsh Harbour,26.5412,-77.0636,84.02,76,51,12.71,1601413200
566,CN,Kashgar,39.4547,75.9797,62.08,32,97,6.4,1601413200
567,BR,Presidente Médici,-11.1753,-61.9014,96.33,34,71,6.04,1601413200
568,VE,Calabozo,8.9242,-67.4293,84.67,79,78,4.94,1601413200
569,BR,Pauini,-7.7136,-66.9764,91.63,45,99,2.46,1601413200
570,US,Williamsport,41.2412,-77.0011,59.07,92,95,4.05,1601413200
571,KZ,Karatau,43.1667,70.4667,48.07,47,100,4.41,1601413200
572,DO,Pedernales,18.0384,-71.744,88.5,67,75,10.54,1601413200
573,AU,Port Hedland,-20.3167,118.5667,75.96,31,36,13.78,1601413200
574,RU,Aktash,50.3,87.7333,23.99,94,88,3.2,1601413200
575,TR,Erzin,36.9559,36.2,79.52,69,0,0.49,1601413200
576,ID,Tanete,-3.9443,119.7848,74.48,84,87,2.8,1601413200
577,CA,Timmins,48.4669,-81.3331,54.9,85,81,10.04,1601413200
578,CN,Kumul,42.8,93.45,52.14,41,23,21.56,1601413200
579,JP,Miyako,39.6367,141.9525,56.97,70,100,3.18,1601413200
580,US,Oldsmar,28.0342,-82.6651,86.29,72,58,14.07,1601413200
581,ID,Baturaja,-4.1333,104.1667,73.27,91,77,1.54,1601413200
582,CD,Mangai,-4.05,19.5333,72.28,91,97,2.3,1601413200
583,IN,Sualkuchi,26.17,91.5709,78.44,87,39,3.13,1601413200
584,US,Glenwood Springs,39.5505,-107.3248,76.21,18,1,5.91,1601413200
585,GH,Esim,4.8699,-2.2405,76.78,90,84,6.89,1601413200
586,CA,Whitecourt,54.1502,-115.6855,59.5,31,10,14.23,1601413200
587,CN,Binzhou,37.3667,118.0167,57.09,67,4,4.63,1601413200
588,BO,Tarija,-21.5355,-64.7296,86.38,21,12,12.26,1601413200
589,US,Westport,41.1415,-73.3579,71.51,87,94,11.63,1601413200
590,BR,São Sebastião do Paraíso,-20.9169,-46.9914,86.09,31,70,5.03,1601413200
591,GF,Sinnamary,5.3833,-52.95,83.71,69,14,7.83,1601413200
592,US,Saint Anthony,45.0205,-93.218,62.76,45,87,9.73,1601413200
593,PK,Uthal,25.8072,66.6219,81.09,77,13,5.86,1601413200
594,ID,Ternate,0.8,127.4,80.15,78,68,1.72,1601413200
595,CA,Sioux Lookout,50.1001,-91.917,52.57,82,87,7.87,1601413200
596,RU,Suntar,62.1444,117.6319,30.18,93,91,3.96,1601413200
597,US,Pleasanton,37.6624,-121.8747,95.56,19,1,4.83,1601413200
598,SV,Puerto El Triunfo,13.2833,-88.55,87.84,69,24,6.04,1601413200
599,ES,Mahon,39.8885,4.2658,68.77,71,10,7.36,1601413200
600,NO,Raudeberg,61.9875,5.1352,51.76,96,100,3.29,1601413200
601,PH,San Policarpo,12.1791,125.5072,78.75,85,98,4.36,1601413200
602,NZ,Pareora,-44.4871,171.2132,43.5,49,21,3.33,1601413200
603,AO,Caconda,-13.7333,15.0667,64.04,59,42,7.54,1601413200
